{
  "type": "FeatureCollection",
  "name": "kampus_medan",
  "crs": {
    "type": "name",
    "properties": { "name": "urn:ogc:def:crs:OGC:1.3:CRS84" }
  },
  "features": [
    {
      "type": "Feature",
      "properties": {
        "id": 1,
        "nama_kmps": "Politeknik Negeri Medan",
        "alamat": "Jl. Almamater No.1, Padang Bulan, Kec. Medan Baru, Kota Medan",
        "logo_url": "polmed.png",
        "website": "https://polmed.ac.id/",
        "status": "Negeri"
      },
      "geometry": {
        "type": "Point",
        "coordinates": [98.654688972141756, 3.564108619228077]
      }
    },
    {
      "type": "Feature",
      "properties": {
        "id": 2,
        "nama_kmps": "Universitas Sumatera Utara",
        "alamat": "Jalan Dr. T. Mansur No.9, Padang Bulan, Kec. Medan Baru, Kota Medan",
        "logo_url": "usu.png",
        "website": "https://www.usu.ac.id/",
        "status": "Negeri"
      },
      "geometry": {
        "type": "Point",
        "coordinates": [98.656906012211309, 3.565444067713794]
      }
    },
    {
      "type": "Feature",
      "properties": {
        "id": 3,
        "nama_kmps": "Universitas Mandiri Bina Prestasi",
        "alamat": "Jl. Jamin Ginting No.285-287, Padang Bulan, Kec. Medan Baru, Kota Medan",
        "logo_url": "mbp.png",
        "website": "https://www.umbp.ac.id/",
        "status": "Swasta"
      },
      "geometry": {
        "type": "Point",
        "coordinates": [98.662043294487034, 3.559656297956563]
      }
    },
    {
      "type": "Feature",
      "properties": {
        "id": 4,
        "nama_kmps": "Universitas Katolik Santo Thomas",
        "alamat": "Jl. Setia Budi No.479, Tj. Sari, Kec. Medan Selayang, Kota Medan",
        "logo_url": "santothomas.png",
        "website": "https://www.ust.ac.id/",
        "status": "Swasta"
      },
      "geometry": {
        "type": "Point",
        "coordinates": [98.622156106627671, 3.543801278150086]
      }
    },
    {
      "type": "Feature",
      "properties": {
        "id": 5,
        "nama_kmps": "Universitas Sari Mutiara Medan",
        "alamat": "Jl. Kapten Muslim No.79, Helvetia Tengah, Kec. Medan Helvetia, Kota Medan",
        "logo_url": "usm.png",
        "website": "https://sari-mutiara.ac.id/",
        "status": "Swasta"
      },
      "geometry": {
        "type": "Point",
        "coordinates": [98.643059278472947, 3.59805472611696]
      }
    },
    {
      "type": "Feature",
      "properties": {
        "id": 6,
        "nama_kmps": "Universitas Muhammadiyah Sumatera Utara",
        "alamat": "Jl. Kapten Muchtar Basri No.3, Glugur Darat II, Kec. Medan Tim., Kota Medan",
        "logo_url": "UMSU.png",
        "website": "https://www.umsu.ac.id/",
        "status": "Swasta"
      },
      "geometry": {
        "type": "Point",
        "coordinates": [98.67594374505542, 3.614401044220828]
      }
    },
    {
      "type": "Feature",
      "properties": {
        "id": 7,
        "nama_kmps": "Universitas Negeri Medan",
        "alamat": "Jl. William Iskandar Ps. V, Kenangan Baru, Kec. Percut Sei Tuan",
        "logo_url": "unimed.png",
        "website": "https://portal.unimed.ac.id/",
        "status": "Negeri"
      },
      "geometry": {
        "type": "Point",
        "coordinates": [98.716944336297814, 3.60794832884014]
      }
    },
    {
      "type": "Feature",
      "properties": {
        "id": 8,
        "nama_kmps": "UIN Sumatera Utara",
        "alamat": "Jl. William Iskandar Ps. V, Medan Estate, Kec. Percut Sei Tuan",
        "logo_url": "uinsu.png",
        "website": "https://www.uinsu.ac.id/",
        "status": "Negeri"
      },
      "geometry": {
        "type": "Point",
        "coordinates": [98.721671417327201, 3.604926648780166]
      }
    },
    {
      "type": "Feature",
      "properties": {
        "id": 9,
        "nama_kmps": "Politeknik Pariwisata Medan",
        "alamat": "Jl. Rumah Sakit H. No.12, Kenangan Baru, Kec. Percut Sei Tuan",
        "logo_url": "poltekpar.png",
        "website": "https://poltekparmedan.ac.id/",
        "status": "Negeri"
      },
      "geometry": {
        "type": "Point",
        "coordinates": [98.717471737900297, 3.612841479752228]
      }
    },
    {
      "type": "Feature",
      "properties": {
        "id": 10,
        "nama_kmps": "Universitas Medan Area",
        "alamat": "Jl. H. Agus Salim Siregar, Kenangan Baru, Kec. Medan Tembung",
        "logo_url": "uma.png",
        "website": "https://uma.ac.id/",
        "status": "Swasta"
      },
      "geometry": {
        "type": "Point",
        "coordinates": [98.718812216973234, 3.602187633341016]
      }
    },
    {
      "type": "Feature",
      "properties": {
        "id": 11,
        "nama_kmps": "Universitas Prima Indonesia",
        "alamat": "Jl. Ayahanda No.51-55, Sei Putih Tengah, Kec. Medan Petisah, Kota Medan",
        "logo_url": "Unpri.png",
        "website": "https://unprimdn.ac.id/",
        "status": "Swasta"
      },
      "geometry": {
        "type": "Point",
        "coordinates": [98.652471932072473, 3.598622514600386]
      }
    },
    {
      "type": "Feature",
      "properties": {
        "id": 12,
        "nama_kmps": "Universitas Battuta",
        "alamat": "Jl. Sekip, Sekip, Kec. Medan Petisah, Kota Medan",
        "logo_url": "battuta.png",
        "website": "https://battuta.ac.id/",
        "status": "Swasta"
      },
      "geometry": {
        "type": "Point",
        "coordinates": [98.665161312294416, 3.596886250420904]
      }
    },
    {
      "type": "Feature",
      "properties": {
        "id": 13,
        "nama_kmps": "Universitas Quality Medan",
        "alamat": "Jl. Ringroad - Ngumban Surbakti No.18, Medan Selayang, Kota Medan",
        "logo_url": "Universitas_Quality.png",
        "website": "https://www.universitasquality.ac.id/",
        "status": "Swasta"
      },
      "geometry": {
        "type": "Point",
        "coordinates": [98.630416290058847, 3.540556400030237]
      }
    },
    {
      "type": "Feature",
      "properties": {
        "id": 14,
        "nama_kmps": "Universitas Panca Budi",
        "alamat": "4, Jl. Gatot Subroto No.km, Simpang Tj., Kec. Medan Sunggal, Kota Medan",
        "logo_url": "Universitas-Pembangunan-Panca-Budi.png",
        "website": "https://www.pancabudi.ac.id/",
        "status": "Swasta"
      },
      "geometry": {
        "type": "Point",
        "coordinates": [98.645771141689806, 3.589965114261239]
      }
    }
  ]
}
